{
"type": "FeatureCollection",
"name": "TrinidadHealthCentres",
"crs": { "type": "name", "properties": { "name": "urn:ogc:def:crs:OGC:1.3:CRS84" } },
"features": [
{ "type": "Feature", "properties": { "Name": "619,003.34, 1,110,693.72", "Loc_Name": "Icacos Health Centre" }, "geometry": { "type": "Point", "coordinates": [ -61.914067032534213, 10.045986980431108 ] } },
{ "type": "Feature", "properties": { "Name": "625,150.5, 1,115,796.34", "Loc_Name": "Cedros Health Centre" }, "geometry": { "type": "Point", "coordinates": [ -61.857818009521658, 10.091940038886941 ] } },
{ "type": "Feature", "properties": { "Name": "631,523.37, 1,120,022.2", "Loc_Name": "Granville Health Centre" }, "geometry": { "type": "Point", "coordinates": [ -61.799522970236247, 10.129945994545368 ] } },
{ "type": "Feature", "properties": { "Name": "638,952.17, 1,120,049.25", "Loc_Name": "Chatam Health Centre" }, "geometry": { "type": "Point", "coordinates": [ -61.731726960206949, 10.129936017028232 ] } },
{ "type": "Feature", "properties": { "Name": "646,952.24, 1,114,165.36", "Loc_Name": "Erin Health Centre" }, "geometry": { "type": "Point", "coordinates": [ -61.658941022544198, 10.076443957922198 ] } },
{ "type": "Feature", "properties": { "Name": "644,622.27, 1,124,877.2", "Loc_Name": "Point Fortin Health Centre" }, "geometry": { "type": "Point", "coordinates": [ -61.679803999701534, 10.17338699634595 ] } },
{ "type": "Feature", "properties": { "Name": "648,222.85, 1,125,719.41", "Loc_Name": "Guapo Health Centre" }, "geometry": { "type": "Point", "coordinates": [ -61.646909998220714, 10.180868036750857 ] } },
{ "type": "Feature", "properties": { "Name": "654,245.1, 1,116,057.34", "Loc_Name": "Palo Seco Health Centre" }, "geometry": { "type": "Point", "coordinates": [ -61.592327008606873, 10.093274038738951 ] } },
{ "type": "Feature", "properties": { "Name": "650,852.07, 1,132,664.92", "Loc_Name": "La Brea Health Centre" }, "geometry": { "type": "Point", "coordinates": [ -61.622643020209196, 10.243568016184438 ] } },
{ "type": "Feature", "properties": { "Name": "659,325.3, 1,125,847.24", "Loc_Name": "Fyzabad Health Centre" }, "geometry": { "type": "Point", "coordinates": [ -61.545575022855822, 10.181589013217391 ] } },
{ "type": "Feature", "properties": { "Name": "663,903.39, 1,121,780.98", "Loc_Name": "Siparia District Health Facility" }, "geometry": { "type": "Point", "coordinates": [ -61.503963974380675, 10.144635956602546 ] } },
{ "type": "Feature", "properties": { "Name": "666,431.76, 1,133,695.46", "Loc_Name": "La Romaine Health Centre" }, "geometry": { "type": "Point", "coordinates": [ -61.480381040762161, 10.25225197016298 ] } },
{ "type": "Feature", "properties": { "Name": "688,498.72, 1,115,637.63", "Loc_Name": "Moruga Health Centre" }, "geometry": { "type": "Point", "coordinates": [ -61.279830022626641, 10.087997968691026 ] } },
{ "type": "Feature", "properties": { "Name": "668,678.53, 1,124,355.48", "Loc_Name": "Penal Health Centre" }, "geometry": { "type": "Point", "coordinates": [ -61.460278034682347, 10.167711042148404 ] } },
{ "type": "Feature", "properties": { "Name": "669,536.77, 1,129,258.82", "Loc_Name": "Debe Health Centre" }, "geometry": { "type": "Point", "coordinates": [ -61.452231968929638, 10.212005962643941 ] } },
{ "type": "Feature", "properties": { "Name": "682,024.25, 1,135,988.87", "Loc_Name": "Indian Walk Health Centre" }, "geometry": { "type": "Point", "coordinates": [ -61.337943980192129, 10.272289001071245 ] } },
{ "type": "Feature", "properties": { "Name": "677,327.07, 1,135,569.23", "Loc_Name": "Princes Town District Health Facility" }, "geometry": { "type": "Point", "coordinates": [ -61.3808410363755, 10.268712025780188 ] } },
{ "type": "Feature", "properties": { "Name": "672,344, 1,135,366.72", "Loc_Name": "Ste Madeline Health Centre" }, "geometry": { "type": "Point", "coordinates": [ -61.426338044790143, 10.267104963137522 ] } },
{ "type": "Feature", "properties": { "Name": "669,767.46, 1,135,350.33", "Loc_Name": "Pleasantville Health Centre" }, "geometry": { "type": "Point", "coordinates": [ -61.449858983041786, 10.26706999282626 ] } },
{ "type": "Feature", "properties": { "Name": "670,376.51, 1,139,375.26", "Loc_Name": "Marabella Health Centre" }, "geometry": { "type": "Point", "coordinates": [ -61.444120994275742, 10.303433028655085 ] } },
{ "type": "Feature", "properties": { "Name": "677,450.82, 1,140,780.13", "Loc_Name": "Williamsville Health Centre" }, "geometry": { "type": "Point", "coordinates": [ -61.379470956534966, 10.315816955532172 ] } },
{ "type": "Feature", "properties": { "Name": "672,269.1, 1,140,897.28", "Loc_Name": "Gasparillo Health Centre" }, "geometry": { "type": "Point", "coordinates": [ -61.426774034419772, 10.317109980094248 ] } },
{ "type": "Feature", "properties": { "Name": "715,596.03, 1,122,365.94", "Loc_Name": "Guyaguyare Health Centre" }, "geometry": { "type": "Point", "coordinates": [ -61.032273999638733, 10.147435025846676 ] } },
{ "type": "Feature", "properties": { "Name": "718,400.16, 1,138,679.73", "Loc_Name": "Mayaro District Health Facility" }, "geometry": { "type": "Point", "coordinates": [ -61.005772012236427, 10.294740025278557 ] } },
{ "type": "Feature", "properties": { "Name": "700,036.84, 1,139,547.72", "Loc_Name": "Rio Claro Health Centre" }, "geometry": { "type": "Point", "coordinates": [ -61.17334197699212, 10.3035760075573 ] } },
{ "type": "Feature", "properties": { "Name": "688,750.51, 1,143,185.37", "Loc_Name": "Brother's Road Health Centre" }, "geometry": { "type": "Point", "coordinates": [ -61.276192024459114, 10.33702697989297 ] } },
{ "type": "Feature", "properties": { "Name": "668,561.15, 1,144,234.47", "Loc_Name": "Claxton Bay Health Centre" }, "geometry": { "type": "Point", "coordinates": [ -61.460480994453214, 10.347444994686754 ] } },
{ "type": "Feature", "properties": { "Name": "685,913.99, 1,149,104.66", "Loc_Name": "Tabaquite Health Centre" }, "geometry": { "type": "Point", "coordinates": [ -61.301801020363079, 10.390677031466453 ] } },
{ "type": "Feature", "properties": { "Name": "684,345.24, 1,153,375.09", "Loc_Name": "Flanagin Town Health Centre" }, "geometry": { "type": "Point", "coordinates": [ -61.315919020806511, 10.429359015262847 ] } },
{ "type": "Feature", "properties": { "Name": "678,214.11, 1,150,517.54", "Loc_Name": "Gran Couva Health Centre" }, "geometry": { "type": "Point", "coordinates": [ -61.372047969785847, 10.403814955121913 ] } },
{ "type": "Feature", "properties": { "Name": "669,592.06, 1,152,427.79", "Loc_Name": "Couva District Health Facility" }, "geometry": { "type": "Point", "coordinates": [ -61.450703028022687, 10.421475961359773 ] } },
{ "type": "Feature", "properties": { "Name": "704,375.9, 1,153,754.54", "Loc_Name": "Biche Health Centre" }, "geometry": { "type": "Point", "coordinates": [ -61.132973017961106, 10.43177298010847 ] } },
{ "type": "Feature", "properties": { "Name": "672,926.59, 1,157,148.57", "Loc_Name": "Freeport Health Centre" }, "geometry": { "type": "Point", "coordinates": [ -61.420033045675943, 10.464006973025754 ] } },
{ "type": "Feature", "properties": { "Name": "682,433.64, 1,159,371.62", "Loc_Name": "Todd's Road Health Centre" }, "geometry": { "type": "Point", "coordinates": [ -61.333087997115399, 10.483661970946812 ] } },
{ "type": "Feature", "properties": { "Name": "675,127.48, 1,162,710.38", "Loc_Name": "Chaguanas District Health Facility" }, "geometry": { "type": "Point", "coordinates": [ -61.399671331533817, 10.51418961451553 ] } },
{ "type": "Feature", "properties": { "Name": "712,291.06, 1,164,138.93", "Loc_Name": "Manzanilla Health Centre" }, "geometry": { "type": "Point", "coordinates": [ -61.060110026849422, 10.525207999948694 ] } },
{ "type": "Feature", "properties": { "Name": "699,201.1, 1,163,597.04", "Loc_Name": "Coryal Health Centre" }, "geometry": { "type": "Point", "coordinates": [ -61.179710011089355, 10.521019014945379 ] } },
{ "type": "Feature", "properties": { "Name": "689,381.65, 1,163,032.29", "Loc_Name": "Talparo Health centre" }, "geometry": { "type": "Point", "coordinates": [ -61.269439021167877, 10.516416032327566 ] } },
{ "type": "Feature", "properties": { "Name": "683,799.04, 1,165,304.96", "Loc_Name": "Las Lomas Health Centre" }, "geometry": { "type": "Point", "coordinates": [ -61.320326007608443, 10.537236017742352 ] } },
{ "type": "Feature", "properties": { "Name": "678,220.19, 1,166,937.77", "Loc_Name": "Cunupia Health Centre" }, "geometry": { "type": "Point", "coordinates": [ -61.371217001030693, 10.552263957375665 ] } },
{ "type": "Feature", "properties": { "Name": "704,869.01, 1,170,942.71", "Loc_Name": "Sangre Grande Health Centre" }, "geometry": { "type": "Point", "coordinates": [ -61.127534033730235, 10.587117968083229 ] } },
{ "type": "Feature", "properties": { "Name": "696,009.54, 1,171,150.94", "Loc_Name": "Cumuto Health Centre" }, "geometry": { "type": "Point", "coordinates": [ -61.208468997496141, 10.5894709763931 ] } },
{ "type": "Feature", "properties": { "Name": "689,047.86, 1,169,303.36", "Loc_Name": "San Raphael Health Centre" }, "geometry": { "type": "Point", "coordinates": [ -61.27217197040941, 10.573123970832853 ] } },
{ "type": "Feature", "properties": { "Name": "681,346.57, 1,170,273.5", "Loc_Name": "St. Helena Health Centre" }, "geometry": { "type": "Point", "coordinates": [ -61.342490993482805, 10.582271986099252 ] } },
{ "type": "Feature", "properties": { "Name": "688,596.18, 1,171,677.16", "Loc_Name": "La Horquetta Health Centre" }, "geometry": { "type": "Point", "coordinates": [ -61.27617897123806, 10.594606006539633 ] } },
{ "type": "Feature", "properties": { "Name": "711,769.98, 1,180,839.8", "Loc_Name": "Matura Health Centre" }, "geometry": { "type": "Point", "coordinates": [ -61.063921041135323, 10.676197043320597 ] } },
{ "type": "Feature", "properties": { "Name": "696,756.88, 1,178,271.82", "Loc_Name": "Valencia Health Centre" }, "geometry": { "type": "Point", "coordinates": [ -61.201264007233313, 10.653802999615603 ] } },
{ "type": "Feature", "properties": { "Name": "684,056.06, 1,174,397.38", "Loc_Name": "Maloney Health Centre" }, "geometry": { "type": "Point", "coordinates": [ -61.317529967463514, 10.619422021690019 ] } },
{ "type": "Feature", "properties": { "Name": "681,744.75, 1,175,432.47", "Loc_Name": "Arouca Health Centre" }, "geometry": { "type": "Point", "coordinates": [ -61.338601040647617, 10.628892045224697 ] } },
{ "type": "Feature", "properties": { "Name": "676,987, 1,177,954.97", "Loc_Name": "Tacarigua Health Centre" }, "geometry": { "type": "Point", "coordinates": [ -61.38196104268772, 10.65192403051859 ] } },
{ "type": "Feature", "properties": { "Name": "672,411.66, 1,177,702.31", "Loc_Name": "St. Joseph Enhanced Health Centre" }, "geometry": { "type": "Point", "coordinates": [ -61.423790036262098, 10.649852977853296 ] } },
{ "type": "Feature", "properties": { "Name": "670,125.27, 1,177,204.3", "Loc_Name": "Aranguez Health Centre" }, "geometry": { "type": "Point", "coordinates": [ -61.444709970415133, 10.645454961066601 ] } },
{ "type": "Feature", "properties": { "Name": "669,734.5, 1,178,133.89", "Loc_Name": "San Juan Health Centre" }, "geometry": { "type": "Point", "coordinates": [ -61.448238956244161, 10.653876966624695 ] } },
{ "type": "Feature", "properties": { "Name": "668,120.71, 1,177,735.74", "Loc_Name": "Barataria Health Centre" }, "geometry": { "type": "Point", "coordinates": [ -61.463007032408974, 10.650350042654434 ] } },
{ "type": "Feature", "properties": { "Name": "666,458.58, 1,179,156.58", "Loc_Name": "Morvant Health Centre" }, "geometry": { "type": "Point", "coordinates": [ -61.478135015166501, 10.663270004427657 ] } },
{ "type": "Feature", "properties": { "Name": "663,288.19, 1,178,175.55", "Loc_Name": "George Street Health Centre" }, "geometry": { "type": "Point", "coordinates": [ -61.50715697023341, 10.654539968116973 ] } },
{ "type": "Feature", "properties": { "Name": "663,320.29, 1,178,709.82", "Loc_Name": "Oxford Street Enhanced Health Centre" }, "geometry": { "type": "Point", "coordinates": [ -61.506840028954066, 10.659368967010098 ] } },
{ "type": "Feature", "properties": { "Name": "662,878.46, 1,178,834.45", "Loc_Name": "Pembroke Street Health Centre" }, "geometry": { "type": "Point", "coordinates": [ -61.51087304551676, 10.66051499746256 ] } },
{ "type": "Feature", "properties": { "Name": "661,883.45, 1,179,106.97", "Loc_Name": "Woodbrooke Health Centre" }, "geometry": { "type": "Point", "coordinates": [ -61.519955970259034, 10.663022026473739 ] } },
{ "type": "Feature", "properties": { "Name": "659,863.75, 1,180,292.01", "Loc_Name": "St. James District Health Facility" }, "geometry": { "type": "Point", "coordinates": [ -61.53836602359528, 10.673823011672873 ] } },
{ "type": "Feature", "properties": { "Name": "659,768.2, 1,180,302.84", "Loc_Name": "National Radiotherapy Centre" }, "geometry": { "type": "Point", "coordinates": [ -61.539238972466009, 10.673925009829322 ] } },
{ "type": "Feature", "properties": { "Name": "653,662.07, 1,181,565.6", "Loc_Name": "Carenage Health Centre" }, "geometry": { "type": "Point", "coordinates": [ -61.595002990916676, 10.685597978359036 ] } },
{ "type": "Feature", "properties": { "Name": "658,457.78, 1,182,972.84", "Loc_Name": "Petit Valley Health Centre" }, "geometry": { "type": "Point", "coordinates": [ -61.551103008499318, 10.698120959691115 ] } },
{ "type": "Feature", "properties": { "Name": "657,104.85, 1,185,604.19", "Loc_Name": "Diego Martin Health Centre" }, "geometry": { "type": "Point", "coordinates": [ -61.563359026132915, 10.721969015301694 ] } },
{ "type": "Feature", "properties": { "Name": "662,807.4, 1,184,047.62", "Loc_Name": "Maraval Health Centre" }, "geometry": { "type": "Point", "coordinates": [ -61.511292976006764, 10.707650981248563 ] } },
{ "type": "Feature", "properties": { "Name": "667,249.14, 1,185,099.01", "Loc_Name": "Santa Cruz Health Centre" }, "geometry": { "type": "Point", "coordinates": [ -61.47064001741149, 10.716959975277753 ] } },
{ "type": "Feature", "properties": { "Name": "675,765.96, 1,192,660.9", "Loc_Name": "Las Cuevas Health Centre" }, "geometry": { "type": "Point", "coordinates": [ -61.39241934339671, 10.784931767403624 ] } },
{ "type": "Feature", "properties": { "Name": "684,336.02, 1,194,196.6", "Loc_Name": "Blanchisseuse Health Centre" }, "geometry": { "type": "Point", "coordinates": [ -61.313981969937267, 10.798397994339851 ] } },
{ "type": "Feature", "properties": { "Name": "705,191.06, 1,196,832.27", "Loc_Name": "Matelot Health Centre" }, "geometry": { "type": "Point", "coordinates": [ -61.123151974755224, 10.821123993098674 ] } },
{ "type": "Feature", "properties": { "Name": "713,079.92, 1,197,642.45", "Loc_Name": "Grande Riviere Health Centre" }, "geometry": { "type": "Point", "coordinates": [ -61.050975013133687, 10.82799995885556 ] } },
{ "type": "Feature", "properties": { "Name": "718,262.26, 1,198,815.44", "Loc_Name": "San Souci Health Centre" }, "geometry": { "type": "Point", "coordinates": [ -61.003522042889152, 10.83829902686608 ] } },
{ "type": "Feature", "properties": { "Name": "725,394.03, 1,198,694.88", "Loc_Name": "Toco Health Centre" }, "geometry": { "type": "Point", "coordinates": [ -60.938322987010828, 10.83677995510074 ] } },
{ "type": "Feature", "properties": { "Name": "724,513.78, 1,193,834.47", "Loc_Name": "Cumana Health Centre" }, "geometry": { "type": "Point", "coordinates": [ -60.9466699780466, 10.79290399509016 ] } },
{ "type": "Feature", "properties": { "Name": "676,904, 1,176,893.00", "Loc_Name": "Macoya Health Centre" }, "geometry": { "type": "Point", "coordinates": [ -61.382770261450737, 10.642327116909433 ] } }
]
}
